{"type": "FeatureCollection", "features": [{"type": "Feature", "id": 2118588656, "geometry": {"type": "Polygon", "coordinates": [[[-77.704426, 0.823882], [-77.703966, 0.824003], [-77.703852, 0.823614], [-77.704298, 0.823461], [-77.704426, 0.823882]]]}, "properties": {"title": "New item", "group": 1446331571}}, {"type": "Feature", "id": 1476209337, "geometry": {"type": "LineString", "coordinates": [[-77.703962, 0.824009], [-77.703099, 0.823682], [-77.702619, 0.82414], [-77.702931, 0.824794], [-77.703665, 0.824557], [-77.703864, 0.825103], [-77.704202, 0.826122], [-77.704619, 0.82732], [-77.706137, 0.827075], [-77.706323, 0.825907], [-77.706236, 0.825837], [-77.705463, 0.824953], [-77.706023, 0.824476], [-77.706123, 0.824079], [-77.705989, 0.822396], [-77.705966, 0.822132], [-77.705972, 0.822034], [-77.705869, 0.822065], [-77.705959, 0.82206], [-77.705954, 0.822191], [-77.705009, 0.822768], [-77.704293, 0.823202], [-77.704268, 0.823236], [-77.704335, 0.823496], [-77.70445, 0.823892], [-77.704153, 0.823982], [-77.703962, 0.824009]]}, "properties": {"title": "New item", "group": 3544082643, "stroke": "#005e38"}}, {"type": "Feature", "id": 2139966057, "geometry": {"type": "Point", "coordinates": [-77.705852, 0.822056]}, "properties": {"title": "J. Benitez", "group": 3544082643, "marker-color": "#005e38", "marker-symbol": "toilets"}}, {"type": "Feature", "id": 4144322045, "geometry": {"type": "Point", "coordinates": [-77.702751, 0.824185]}, "properties": {"title": "C. Andrade", "group": 3544082643, "marker-color": "#005e38", "marker-symbol": "toilets"}}, {"type": "Feature", "id": 1786973125, "geometry": {"type": "Point", "coordinates": [-77.703975, 0.824939]}, "properties": {"title": "M. Mendez", "group": 3544082643, "marker-color": "#005e38", "marker-symbol": "toilets"}}, {"type": "Feature", "id": 2204039619, "geometry": {"type": "Point", "coordinates": [-77.706036, 0.826967]}, "properties": {"title": "A. Molina", "group": 3544082643, "marker-color": "#005e38", "marker-symbol": "toilets"}}, {"type": "Feature", "id": 3554095838, "geometry": {"type": "Point", "coordinates": [-77.704578, 0.823844]}, "properties": {"title": "New item", "group": 3705123604, "marker-color": "#2a4ea1", "marker-symbol": "basketball"}}, {"type": "Feature", "id": 1211969848, "geometry": {"type": "Point", "coordinates": [-77.702859, 0.824008]}, "properties": {"title": "New item", "group": 3705123604, "marker-color": "#2a4ea1", "marker-symbol": "basketball"}}, {"type": "Feature", "id": 41033126, "geometry": {"type": "Point", "coordinates": [-77.702782, 0.824094]}, "properties": {"title": "New item", "group": 3705123604, "marker-color": "#2a4ea1", "marker-symbol": "basketball"}}, {"type": "Feature", "id": 3690589447, "geometry": {"type": "Point", "coordinates": [-77.702714, 0.824151]}, "properties": {"title": "New item", "group": 3705123604, "marker-color": "#2a4ea1", "marker-symbol": "basketball"}}, {"type": "Feature", "id": 1654421038, "geometry": {"type": "Point", "coordinates": [-77.704532, 0.823726]}, "properties": {"title": "New item", "group": 3705123604, "marker-color": "#2a4ea1", "marker-symbol": "basketball"}}, {"type": "Feature", "id": 1536077141, "geometry": {"type": "Point", "coordinates": [-77.705271, 0.82353]}, "properties": {"title": "New item", "group": 3705123604, "marker-color": "#2a4ea1", "marker-symbol": "basketball"}}, {"type": "Feature", "id": 2772390948, "geometry": {"type": "Point", "coordinates": [-77.70529, 0.823484]}, "properties": {"title": "New item", "group": 3705123604, "marker-color": "#2a4ea1", "marker-symbol": "basketball"}}, {"type": "Feature", "id": 158364720, "geometry": {"type": "Point", "coordinates": [-77.705048, 0.822955]}, "properties": {"title": "New item", "group": 3705123604, "marker-color": "#2a4ea1", "marker-symbol": "basketball"}}, {"type": "Feature", "id": 488827272, "geometry": {"type": "Point", "coordinates": [-77.704695, 0.824406]}, "properties": {"title": "New item", "group": 3705123604, "marker-color": "#2a4ea1", "marker-symbol": "basketball"}}, {"type": "Feature", "id": 1770062057, "geometry": {"type": "Point", "coordinates": [-77.704872, 0.825144]}, "properties": {"title": "New item", "group": 3705123604, "marker-color": "#2a4ea1", "marker-symbol": "basketball"}}, {"type": "Feature", "id": 2888884243, "geometry": {"type": "Point", "coordinates": [-77.704846, 0.825105]}, "properties": {"title": "New item", "group": 3705123604, "marker-color": "#2a4ea1", "marker-symbol": "basketball"}}, {"type": "Feature", "id": 2961427506, "geometry": {"type": "Point", "coordinates": [-77.704963, 0.825098]}, "properties": {"title": "New item", "group": 3705123604, "marker-color": "#2a4ea1", "marker-symbol": "basketball"}}], "groups": [{"title": "CENTRO DE SALUD", "id": 1446331571}, {"title": "ADULTOS MAYORES", "id": 3544082643}, {"title": "NIÃ‘OS", "id": 3705123604}], "markers": [], "properties": {}}